{
    "users": [],
    "ads": [
        {
            "id": 1,
            "location": "",
            "phone": "09373695757",
            "title": "آپارتمان 80 متری در شهرک غرب",
            "urgent": true,
            "type": "A"
        },
        {
            "id": 2,
            "location": "",
            "phone": "09193695987",
            "title": "آپارتمان 60 متری در تهرانپارس",
            "urgent": false,
            "type": "A"
        },
        {
            "id": 3,
            "location": "",
            "phone": "09129635241",
            "title": "آپارتمان 60 متری در ونک",
            "urgent": true,
            "type": "A"
        },
        {
            "id": 4,
            "location": "",
            "phone": "09371479632",
            "title": "ویلا 80 متری در محمود آباد",
            "urgent": true,
            "type": "V"
        },
        {
            "id": 5,
            "location": "",
            "phone": "09193695987",
            "title": "آپارتمان 120 متری در سهروردی",
            "urgent": false,
            "type": "A"
        }
        ,
        {
            "id": 6,
            "location": "",
            "phone": "09129635241",
            "title": "ویلا 95 متری در کردان",
            "urgent": true,
            "type": "V"
        },
        {
            "id": 7,
            "location": "",
            "phone": "09373695757",
            "title": "آپارتمان 80 متری در شهرزیبا",
            "urgent": true,
            "type": "A"
        },
        {
            "id": 8,
            "location": "",
            "phone": "09193695987",
            "title": "آپارتمان 75 متری در گیشا",
            "urgent": false,
            "type": "A"
        },
        {
            "id": 9,
            "location": "",
            "phone": "09129635241",
            "title": "آپارتمان 250 متری در الهیه",
            "urgent": true,
            "type": "A"
        },
        {
            "id": 10,
            "location": "",
            "phone": "09373695757",
            "title": "آپارتمان 150 متری در جردن",
            "urgent": true,
            "type": "A"
        },
        {
            "id": 11,
            "location": "",
            "phone": "09193695987",
            "title": "آپارتمان 90 متری در فاطمی",
            "urgent": false,
            "type": "A"
        }
        ,
        {
            "id": 12,
            "location": "",
            "phone": "09129635241",
            "title": "آپارتمان 60 متری در چیتگر",
            "urgent": true,
            "type": "A"
        },
        {
            "id": 13,
            "location": "",
            "phone": "09373695757",
            "title": "آپارتمان 80 متری در شهرک غرب",
            "urgent": true,
            "type": "A"
        },
        {
            "id": 14,
            "location": "",
            "phone": "09193695987",
            "title": "آپارتمان 60 متری در تهرانپارس",
            "urgent": false,
            "type": "A"
        },
        {
            "id": 15,
            "location": "",
            "phone": "09129635241",
            "title": "آپارتمان 60 متری در ونک",
            "urgent": true,
            "type": "A"
        },
        {
            "id": 16,
            "location": "",
            "phone": "09371479632",
            "title": "ویلا 80 متری در محمود آباد",
            "urgent": true,
            "type": "V"
        },
        {
            "id": 17,
            "location": "",
            "phone": "09193695987",
            "title": "آپارتمان 120 متری در سهروردی",
            "urgent": false,
            "type": "A"
        }
        ,
        {
            "id": 18,
            "location": "",
            "phone": "09129635241",
            "title": "ویلا 95 متری در کردان",
            "urgent": true,
            "type": "V"
        },
        {
            "id": 19,
            "location": "",
            "phone": "09373695757",
            "title": "آپارتمان 80 متری در شهرزیبا",
            "urgent": true,
            "type": "A"
        },
        {
            "id": 20,
            "location": "",
            "phone": "09193695987",
            "title": "آپارتمان 75 متری در گیشا",
            "urgent": false,
            "type": "A"
        },
        {
            "id": 21,
            "location": "",
            "phone": "09129635241",
            "title": "آپارتمان 250 متری در الهیه",
            "urgent": true,
            "type": "A"
        },
        {
            "id": 22,
            "location": "",
            "phone": "09373695757",
            "title": "آپارتمان 150 متری در جردن",
            "urgent": true,
            "type": "A"
        },
        {
            "id": 23,
            "location": "",
            "phone": "09193695987",
            "title": "آپارتمان 90 متری در فاطمی",
            "urgent": false,
            "type": "A"
        }
        ,
        {
            "id": 24,
            "location": "",
            "phone": "09129635241",
            "title": "آپارتمان 60 متری در چیتگر",
            "urgent": true,
            "type": "A"
        }
    ]
}